id,type,name,name_en,operator,status,hours,phone,lat,lng,address,area,sub_area,official_url,last_verified,note,open_early,open_late,is_24h,atm_intl,baby_goods,tax_free,takkyubin
hilton-lawson-24h,conbini,ローソン ヒルトン東京ベイ店,Lawson Hilton Tokyo Bay,ローソン,open,24時間営業,047-304-3620,35.627180,139.873697,千葉県浦安市舞浜1-8 ヒルトン東京ベイ,リゾート,舞浜,https://tokyobay.hiltonjapan.co.jp/facilities/shop,2026/6/29,旧「生活彩家」をリニューアル。浦安オフィシャルで唯一の館内24時間コンビニ / 統合元リストNo.20,1,1,1,check,,,1
hilton-lawson-s,conbini,ローソン Sヒルトン東京ベイ店,Lawson S Hilton Tokyo Bay,ローソン,open,17:00～23:00,047-381-8858,35.627180,139.873697,千葉県浦安市舞浜1-8,リゾート,舞浜,https://tokyobay.hiltonjapan.co.jp/facilities/shop,2026/6/29,同フロアの時間限定店。24時間店とは別店舗 / 統合元リストNo.21,,1,,check,,,1
seikatsu-saika-hilton,conbini,生活彩家 ヒルトン東京ベイ店,Seikatsu Saika Hilton Tokyo Bay,生活彩家,closed,-,,35.627180,139.873697,千葉県浦安市舞浜1-8 ヒルトン東京ベイ1F,リゾート,舞浜,,2026/6/29,閉店。hilton-lawson-24h にリニューアル（沿革記録用・現役表記には使わない）,,,,,,,
newdays-maihama,conbini,NewDays 舞浜,NewDays Maihama,NewDays,open,6:30～23:00,047-301-3827,35.636112,139.884384,千葉県浦安市舞浜26-5 舞浜駅2F 改札外 ホテルドリームゲート内,リゾート,舞浜,https://www.j-retail.jp/,2026/6/29,舞浜系ホテルの最寄外部コンビニ。dreamgateは館内直結 / 統合元リストNo.70,1,1,,,,,
seven-eleven-urayasu-maihama,conbini,セブンイレブン 浦安舞浜店,7-Eleven Urayasu Maihama,セブンイレブン,open,24時間営業,047-355-3755,35.638699,139.882965,千葉県浦安市舞浜2-46-1,リゾート,舞浜,https://www.sej.co.jp/shop/,2026/6/29,TDLホテル・フォーストーリーズの外部最寄24時間 / 統合元リストNo.43,1,1,1,1,,,1
mona-shin-urayasu,commercial,MONA新浦安,MONA Shin-Urayasu,,open,店舗による（要確認）,,35.649063,139.913803,千葉県浦安市入船1 新浦安駅前,ベイサイド,新浦安,,2026/6/29,新浦安駅前の商業施設。新浦安エリア各ホテルの買い物先,,,,,,,
atre-shin-urayasu,commercial,アトレ新浦安,atre Shin-Urayasu,JR東日本,open,店舗による（要確認）,,35.651039,139.911285,千葉県浦安市美浜1 新浦安駅直結,ベイサイド,新浦安,,2026/6/29,新浦安駅直結の商業施設,,,,,,,
royal-park-lawson,conbini,ローソン ザ ロイヤルパークホテル 舞浜リゾート 東京ベイ店,Lawson Royal Park Maihama,ローソン,open,24時間営業,047-390-5025,35.626700,139.897200,千葉県浦安市千鳥13-1,リゾート,千鳥,https://www.e-map.ne.jp/p/lawson/,2026/6/29,館内1F直結 / 統合元リストNo.22,1,1,1,check,,,1
hoshino-lawson,conbini,ローソン 星野リゾート1955東京ベイ店,Lawson (Hoshino Resorts 1955),ローソン,open,24時間営業,047-381-6600,35.637997,139.931976,千葉県浦安市日の出7-2-3,ベイサイド,新町,https://www.e-map.ne.jp/p/lawson/,2026/6/29,館内コンビニ / 統合元リストNo.7（celebration-discoverの最寄でもある）,1,1,1,check,,,1
emion-familymart,conbini,ファミリーマート エミオン東京ベイ店,FamilyMart (Hotel Emion),ファミリーマート,open,7:00-24:00 ※11:00-15:00は休業,047-390-5006,35.647377,139.919174,千葉県浦安市日の出1丁目1-1,ベイサイド,新町,https://store.family.co.jp/,2026/6/29,館内コンビニ / 統合元リストNo.62,1,1,,check,,,1
daily-yamazaki-chidori,conbini,デイリーヤマザキ 浦安千鳥店,Daily Yamazaki Urayasu Chidori,デイリーヤマザキ,open,24時間営業,047-305-0204,35.626034,139.8992,千葉県浦安市千鳥12-7,リゾート,千鳥,https://www.daily-yamazaki.jp/,2026/6/29,舞浜ユーラシアの最寄外部（徒歩約10分） / 統合元リストNo.66,1,1,1,,,,1
seiyu-urayasu-ekimae,supermarket,西友浦安店,Seiyu (near BAYHOTEL Urayasu),西友,open,24時間（食品1-2F。6F専門店は時間変動）,0120-033-559,35.665432,139.894836,千葉県浦安市北栄1-14-1,リバーサイド,浦安駅,https://www.seiyu.co.jp/shop/%E8%A5%BF%E5%8F%8B%E6%B5%A6%E5%AE%89%E5%BA%97/,2026/6/29,BAYHOTEL浦安駅前の最寄スーパー（浦安駅東口 徒歩1分）。改装中（食品フロアは営業）。将来トライアルに転換予定（転換時に更新）,1,1,1,,1,,
poi-001,conbini,ローソンストア100 LS浦安富士見店,Lawson Store 100 Urayasu Fujimi,ローソン,open,24時間営業,047-390-6099,35.652733,139.892288,千葉県浦安市富士見1-2-18,リバーサイド,元町,https://www.e-map.ne.jp/p/lawson/,2026/6/29,,1,1,1,check,,,1
poi-002,conbini,ローソン オリエンタルホテル東京ベイ店,Lawson Oriental Hotel Tokyo Bay,ローソン,open,24時間営業,047-381-5200,35.651051,139.912766,千葉県浦安市美浜1-8-2,ベイサイド,新浦安,https://www.e-map.ne.jp/p/lawson/,2026/6/29,オリエンタルホテル東京ベイ 館内（浦安ブライトンホテルの最寄でもある）,1,1,1,check,,,1
poi-003,conbini,ローソン 浦安猫実四丁目店,Lawson Urayasu Nekomi 4-chome,ローソン,open,24時間営業,047-351-4467,35.664001,139.896027,千葉県浦安市猫実4-6-39,リバーサイド,浦安駅,https://www.e-map.ne.jp/p/lawson/,2026/6/29,,1,1,1,1,,,1
poi-004,conbini,ローソン 浦安見明川店,Lawson Urayasu Miakegawa,ローソン,open,24時間営業,047-316-8661,35.63686,139.892838,千葉県浦安市弁天3-2-97,ベイサイド,新浦安,https://www.e-map.ne.jp/p/lawson/,2026/6/29,,1,1,1,1,,,1
poi-005,conbini,ローソン 浦安明海店,Lawson Urayasu Akemi,ローソン,open,24時間営業,047-316-1267,35.641327,139.920609,千葉県浦安市明海4-2-3,ベイサイド,新町,https://www.e-map.ne.jp/p/lawson/,2026/6/29,,1,1,1,1,,,1
poi-006,conbini,ナチュラルローソン プラナ東京ベイ店,Natural Lawson Prana Tokyo Bay,ローソン,open,24時間営業,047-306-6039,35.635925,139.924515,千葉県浦安市明海6-2,ベイサイド,新町,https://www.e-map.ne.jp/p/lawson/,2026/6/29,三井ガーデンホテルプラナ東京ベイ 館内（ナチュラルローソン）,1,1,1,check,,,1
poi-008,conbini,ローソン コンフォートスイーツ東京ベイ店,Lawson Comfort Suites Tokyo Bay,ローソン,open,24時間営業,047-316-2300,35.638119,139.927719,千葉県浦安市明海5-8-15,ベイサイド,新町,https://www.e-map.ne.jp/p/lawson/,2026/6/29,コンフォートスイーツ東京ベイ 館内（celebration-wishの最寄でもある）,1,1,1,check,,,1
poi-009,conbini,ローソン 浦安猫実五丁目店,Lawson Urayasu Nekomi 5-chome,ローソン,open,24時間営業,047-354-9288,35.663673,139.891769,千葉県浦安市猫実5-1-38,リバーサイド,浦安駅,https://www.e-map.ne.jp/p/lawson/,2026/6/29,,1,1,1,1,,,1
poi-010,conbini,ローソン 舞浜店,Lawson Maihama,ローソン,open,24時間営業,047-381-0530,35.645016,139.887131,千葉県浦安市富士見3-23-5,リバーサイド,元町,https://www.e-map.ne.jp/p/lawson/,2026/6/29,,1,1,1,1,,,1
poi-011,conbini,ローソン 浦安駅南口店,Lawson Urayasu Station South Exit,ローソン,open,24時間営業,047-352-9988,35.665405,139.894608,千葉県浦安市北栄1-15-28,リバーサイド,浦安駅,https://www.e-map.ne.jp/p/lawson/,2026/6/29,,1,1,1,1,,,1
poi-012,conbini,ローソン 浦安富士見店,Lawson Urayasu Fujimi,ローソン,open,24時間営業,047-381-5677,35.650253,139.890671,千葉県浦安市富士見1-14-34,リバーサイド,元町,https://www.e-map.ne.jp/p/lawson/,2026/6/29,,1,1,1,1,,,1
poi-013,conbini,ローソン 浦安入船店,Lawson Urayasu Irifune,ローソン,open,24時間営業,047-304-5781,35.647228,139.910858,千葉県浦安市入船2-3-2,ベイサイド,新浦安,https://www.e-map.ne.jp/p/lawson/,2026/6/29,,1,1,1,1,,,1
poi-014,conbini,ローソン 新浦安TKビルディング店,Lawson Shin-Urayasu TK Building,ローソン,open,24時間営業,047-355-5050,35.648838,139.911865,千葉県浦安市入船1-6-1,ベイサイド,新浦安,https://www.e-map.ne.jp/p/lawson/,2026/6/29,,1,1,1,1,,,1
poi-015,conbini,ローソン メトロス浦安店,Lawson Metros Urayasu,ローソン,open,07:00～22:00,03-3816-2604,35.665558,139.892654,千葉県浦安市北栄1-13-1 東西線浦安駅構内,リバーサイド,浦安駅,https://www.e-map.ne.jp/p/lawson/,2026/6/29,,1,1,,check,,,1
poi-016,conbini,ローソン 浦安北栄四丁目店,Lawson Urayasu Kitasakae 4-chome,ローソン,open,24時間営業,047-390-0399,35.661541,139.900299,千葉県浦安市北栄4-21-2,リバーサイド,浦安駅,https://www.e-map.ne.jp/p/lawson/,2026/6/29,,1,1,1,1,,,1
poi-017,conbini,ローソン 浦安南口店,Lawson Urayasu South Exit,ローソン,open,24時間営業,047-304-5199,35.664494,139.892426,千葉県浦安市猫実4-18-21,リバーサイド,浦安駅,https://www.e-map.ne.jp/p/lawson/,2026/6/29,,1,1,1,1,,,1
poi-018,conbini,ローソン 浦安富士見四丁目店,Lawson Urayasu Fujimi 4-chome,ローソン,open,24時間営業,047-316-3787,35.647457,139.889343,千葉県浦安市富士見4-10-30,リバーサイド,元町,https://www.e-map.ne.jp/p/lawson/,2026/6/29,,1,1,1,1,,,1
poi-019,conbini,ローソン シーサイド新浦安店,Lawson Seaside Shin-Urayasu,ローソン,open,24時間営業,047-352-6961,35.641151,139.930267,千葉県浦安市日の出5-7-2,ベイサイド,新町,https://www.e-map.ne.jp/p/lawson/,2026/6/29,ラ・ジェント・ホテル東京ベイ 隣接（最寄）,1,1,1,1,,,1
poi-023,conbini,ナチュラルローソン 順天堂大学医学部附属浦安病院店,Natural Lawson Juntendo Urayasu Hospital,ローソン,open,07:30～22:00,047-390-5710,35.645916,139.906921,千葉県浦安市富岡2-1-1,ベイサイド,新浦安,https://www.e-map.ne.jp/p/lawson/,2026/6/29,,,1,,check,,,1
poi-024,conbini,セブンイレブン 浦安海楽店,7-Eleven Urayasu Kairaku,セブンイレブン,open,24時間営業,047-351-9766,35.658447,139.90506,千葉県浦安市海楽2-4-1,リバーサイド,元町,https://www.sej.co.jp/shop/,2026/6/29,,1,1,1,1,,,1
poi-025,conbini,セブンイレブン 浦安当代島店,7-Eleven Urayasu Tokaijima,セブンイレブン,open,24時間営業,047-353-3464,35.670788,139.894455,千葉県浦安市当代島3-4-1,リバーサイド,浦安駅,https://www.sej.co.jp/shop/,2026/6/29,,1,1,1,1,,,1
poi-026,conbini,セブンイレブン 浦安今川4丁目店,7-Eleven Urayasu Imagawa 4-chome,セブンイレブン,open,24時間営業,047-305-3858,35.643391,139.90538,千葉県浦安市今川4丁目1-1,ベイサイド,新浦安,https://www.sej.co.jp/shop/,2026/6/29,,1,1,1,1,,,1
poi-027,conbini,セブンイレブン 浦安北栄3丁目店,7-Eleven Urayasu Kitasakae 3-chome,セブンイレブン,open,24時間営業,047-350-3821,35.664753,139.900528,千葉県浦安市北栄3-9-16,リバーサイド,浦安駅,https://www.sej.co.jp/shop/,2026/6/29,,1,1,1,1,,,1
poi-028,conbini,セブンイレブン 浦安鉄鋼通り店,7-Eleven Urayasu Tekkodori,セブンイレブン,open,24時間営業,047-380-8760,35.640732,139.901642,千葉県浦安市鉄鋼通り1-1-1,リゾート,千鳥,https://www.sej.co.jp/shop/,2026/6/29,,1,1,1,1,,,1
poi-029,conbini,セブンイレブン 浦安堀江6丁目店,7-Eleven Urayasu Horie 6-chome,セブンイレブン,open,24時間営業,047-350-6668,35.653164,139.898224,千葉県浦安市堀江6-1-45,リバーサイド,元町,https://www.sej.co.jp/shop/,2026/6/29,,1,1,1,1,,,1
poi-030,conbini,セブンイレブン 浦安明海5丁目店,7-Eleven Urayasu Akemi 5-chome,セブンイレブン,open,24時間営業,047-351-8211,35.642681,139.924133,千葉県浦安市明海5-1-1,ベイサイド,新町,https://www.sej.co.jp/shop/,2026/6/29,,1,1,1,1,,,1
poi-031,conbini,セブンイレブン 浦安入船4丁目店,7-Eleven Urayasu Irifune 4-chome,セブンイレブン,open,24時間営業,047-305-1217,35.647968,139.918381,千葉県浦安市入船4-9-1,ベイサイド,新浦安,https://www.sej.co.jp/shop/,2026/6/29,,1,1,1,1,,,1
poi-032,conbini,セブンイレブン 浦安高洲2丁目店,7-Eleven Urayasu Takasu 2-chome,セブンイレブン,open,24時間営業,047-352-3018,35.637566,139.910934,千葉県浦安市高洲2-4-10,ベイサイド,新町,https://www.sej.co.jp/shop/,2026/6/29,,1,1,1,1,,,1
poi-033,conbini,セブンイレブン 湾岸浦安インター店,7-Eleven Wangan Urayasu Interchange,セブンイレブン,open,24時間営業,047-352-5571,35.641434,139.893341,千葉県浦安市弁天4-21-1,ベイサイド,新浦安,https://www.sej.co.jp/shop/,2026/6/29,,1,1,1,1,,,1
poi-034,conbini,セブンイレブン 浦安当代島1丁目店,7-Eleven Urayasu Tokaijima 1-chome,セブンイレブン,open,24時間営業,047-351-8070,35.666447,139.889908,千葉県浦安市当代島1-14-15,リバーサイド,浦安駅,https://www.sej.co.jp/shop/,2026/6/29,,1,1,1,1,,,1
poi-035,conbini,セブンイレブン 浦安北栄2丁目店,7-Eleven Urayasu Kitasakae 2-chome,セブンイレブン,open,24時間営業,047-352-1288,35.669632,139.894318,千葉県浦安市北栄2-16-12,リバーサイド,浦安駅,https://www.sej.co.jp/shop/,2026/6/29,,1,1,1,1,,,1
poi-036,conbini,セブンイレブン 浦安猫実5丁目店,7-Eleven Urayasu Nekomi 5-chome,セブンイレブン,open,24時間営業,047-353-0709,35.664429,139.889481,千葉県浦安市猫実5丁目11-24,リバーサイド,浦安駅,https://www.sej.co.jp/shop/,2026/6/29,,1,1,1,1,,,1
poi-037,conbini,セブンイレブン 浦安北栄1丁目店,7-Eleven Urayasu Kitasakae 1-chome,セブンイレブン,open,24時間営業,047-380-5110,35.665474,139.897552,千葉県浦安市北栄1-4-22,リバーサイド,浦安駅,https://www.sej.co.jp/shop/,2026/6/29,,1,1,1,1,,,1
poi-038,conbini,セブンイレブン 浦安堀江1丁目店,7-Eleven Urayasu Horie 1-chome,セブンイレブン,open,24時間営業,047-355-7117,35.657444,139.895706,千葉県浦安市堀江1丁目33-14,リバーサイド,元町,https://www.sej.co.jp/shop/,2026/6/29,,1,1,1,1,,,1
poi-039,conbini,セブンイレブン 浦安美浜店,7-Eleven Urayasu Mihama,セブンイレブン,open,24時間営業,047-354-4580,35.652393,139.911469,千葉県浦安市美浜1-7-1,ベイサイド,新浦安,https://www.sej.co.jp/shop/,2026/6/29,,1,1,1,1,,,1
poi-040,conbini,セブンイレブン 浦安富士見2丁目店,7-Eleven Urayasu Fujimi 2-chome,セブンイレブン,open,24時間営業,047-390-5240,35.653736,139.890274,千葉県浦安市富士見2丁目3-3,リバーサイド,元町,https://www.sej.co.jp/shop/,2026/6/29,,1,1,1,1,,,1
poi-041,conbini,セブンイレブン 浦安猫実2丁目店,7-Eleven Urayasu Nekomi 2-chome,セブンイレブン,open,24時間営業,047-380-1804,35.660984,139.900696,千葉県浦安市猫実2丁目14-22,リバーサイド,浦安駅,https://www.sej.co.jp/shop/,2026/6/29,,1,1,1,1,,,1
poi-042,conbini,セブンイレブン 浦安富士見5丁目店,7-Eleven Urayasu Fujimi 5-chome,セブンイレブン,open,24時間営業,047-355-0448,35.645535,139.887939,千葉県浦安市富士見5丁目2-28,リバーサイド,元町,https://www.sej.co.jp/shop/,2026/6/29,,1,1,1,1,,,1
poi-044,conbini,セブンイレブン 浦安駅南口店,7-Eleven Urayasu Station South Exit,セブンイレブン,open,24時間営業,047-355-3600,35.665382,139.893219,千葉県浦安市北栄1丁目16-17,リバーサイド,浦安駅,https://www.sej.co.jp/shop/,2026/6/29,,1,1,1,1,,,1
poi-045,conbini,セブンイレブン 浦安富士見店,7-Eleven Urayasu Fujimi,セブンイレブン,open,24時間営業,047-354-3956,35.648228,139.8927,千葉県浦安市富士見1丁目17-6,リバーサイド,元町,https://www.sej.co.jp/shop/,2026/6/29,,1,1,1,1,,,1
poi-046,conbini,ファミリーマート 浦安堀江三丁目店,FamilyMart Urayasu Horie 3-chome,ファミリーマート,open,24時間,047-316-3015,35.656773,139.891907,千葉県浦安市堀江3-27-15,リバーサイド,元町,https://store.family.co.jp/,2026/6/29,,1,1,1,check,,,1
poi-047,conbini,ファミリーマート 浦安駅前店,FamilyMart Urayasu Ekimae,ファミリーマート,open,24時間,047-390-7736,35.665722,139.892502,千葉県浦安市当代島1-1-25 板徳ビル1F,リバーサイド,浦安駅,https://store.family.co.jp/,2026/6/29,,1,1,1,check,,,1
poi-048,conbini,ファミリーマート 浦安駅東口店,FamilyMart Urayasu Station East Exit,ファミリーマート,open,24時間,047-305-6382,35.666237,139.893677,千葉県浦安市北栄1丁目13番17号,リバーサイド,浦安駅,https://store.family.co.jp/,2026/6/29,,1,1,1,check,,,1
poi-049,conbini,ファミリーマート ヤックスドラッグ浦安東野店,FamilyMart Yac's Drug Urayasu Higashino,ファミリーマート,open,24時間,047-390-7135,35.647144,139.893661,千葉県浦安市東野3丁目4番11号,ベイサイド,新浦安,https://store.family.co.jp/,2026/6/29,,1,1,1,check,,,1
poi-050,conbini,ファミリーマート 東京ベイ・浦安市川医療センター店,FamilyMart Tokyo Bay Urayasu-Ichikawa Medical Center,ファミリーマート,open,7:00-20:00,047-323-6651,35.671627,139.893219,千葉県浦安市当代島3丁目4-32,リバーサイド,浦安駅,https://store.family.co.jp/,2026/6/29,,1,,,check,,,1
poi-051,conbini,ファミリーマート 浦安富士見一丁目店,FamilyMart Urayasu Fujimi 1-chome,ファミリーマート,open,24時間,047-700-7005,35.65118,139.894516,千葉県浦安市富士見1丁目5番1号,リバーサイド,元町,https://store.family.co.jp/,2026/6/29,,1,1,1,check,,,1
poi-052,conbini,ファミリーマート ニーズ浦安店,FamilyMart Needs Urayasu,ファミリーマート,open,24時間,047-305-6230,35.667351,139.895844,千葉県浦安市北栄2丁目4番11号,リバーサイド,浦安駅,https://store.family.co.jp/,2026/6/29,,1,1,1,check,,,1
poi-053,conbini,ファミリーマート 浦安東野一丁目店,FamilyMart Urayasu Higashino 1-chome,ファミリーマート,open,24時間,047-306-2721,35.652927,139.898788,千葉県浦安市東野1-3-1,ベイサイド,新浦安,https://store.family.co.jp/,2026/6/29,,1,1,1,check,,,1
poi-054,conbini,ファミリーマート 浦安若潮通り店,FamilyMart Urayasu Wakashio-dori,ファミリーマート,open,24時間,047-316-6512,35.637115,139.898392,千葉県浦安市鉄鋼通り2-1-8,リゾート,千鳥,https://store.family.co.jp/,2026/6/29,,1,1,1,check,,,1
poi-055,conbini,ファミリーマート 浦安北栄店,FamilyMart Urayasu Kitasakae,ファミリーマート,open,24時間,047-305-7130,35.664665,139.90271,千葉県浦安市北栄4-28-11,リバーサイド,浦安駅,https://store.family.co.jp/,2026/6/29,,1,1,1,check,,,1
poi-056,conbini,ファミリーマート 浦安海楽店,FamilyMart Urayasu Kairaku,ファミリーマート,open,24時間,047-304-6030,35.653763,139.902878,千葉県浦安市海楽1-1-7,リバーサイド,元町,https://store.family.co.jp/,2026/6/29,,1,1,1,check,,,1
poi-057,conbini,ファミリーマート 浦安北栄四丁目店,FamilyMart Urayasu Kitasakae 4-chome,ファミリーマート,open,24時間,047-316-8731,35.661415,139.9039,千葉県浦安市北栄4-17-47,リバーサイド,浦安駅,https://store.family.co.jp/,2026/6/29,,1,1,1,check,,,1
poi-058,conbini,ファミリーマート アトレ新浦安店,FamilyMart atre Shin-Urayasu,ファミリーマート,open,24時間,047-305-4877,35.64994,139.91272,千葉県浦安市入船1丁目1番の1 1階6070,ベイサイド,新浦安,https://store.family.co.jp/,2026/6/29,,1,1,1,check,,,1
poi-059,conbini,ファミリーマート 新浦安マーレ店,FamilyMart Shin-Urayasu Mare,ファミリーマート,open,24時間,047-712-6957,35.650169,139.913925,千葉県浦安市入船1丁目2番1号,ベイサイド,新浦安,https://store.family.co.jp/,2026/6/29,,1,1,1,check,,,1
poi-060,conbini,ファミリーマート 浦安入船六丁目店,FamilyMart Urayasu Irifune 6-chome,ファミリーマート,open,24時間,047-314-1550,35.651169,139.915375,千葉県浦安市入船6丁目1番2号,ベイサイド,新浦安,https://store.family.co.jp/,2026/6/29,,1,1,1,check,,,1
poi-061,conbini,ファミリーマート 浦安マリーナ店,FamilyMart Urayasu Marina,ファミリーマート,open,24時間,047-355-6789,35.646507,139.920258,千葉県浦安市日の出1-3-1,ベイサイド,新町,https://store.family.co.jp/,2026/6/29,,1,1,1,check,,,1
poi-063,conbini,ファミリーマート エミオン東京ベイ／S店,FamilyMart Emion Tokyo Bay S,ファミリーマート,open,7:00-24:00,047-323-6334,35.647377,139.919174,千葉県浦安市日の出1丁目1-1,ベイサイド,新町,https://store.family.co.jp/,2026/6/29,エミオン東京ベイ サテライト店（emion-familymartの別店舗）,1,1,,check,,,1
poi-064,conbini,ミニストップ 堀江4丁目店,Ministop Horie 4-chome,ミニストップ,open,24時間営業,047-353-1711,35.659546,139.890915,千葉県浦安市堀江4丁目36-50,リバーサイド,元町,https://www.ministop.co.jp/,2026/6/29,,1,1,1,check,,,1
poi-065,conbini,ミニストップ 浦安猫実2丁目店,Ministop Urayasu Nekomi 2-chome,ミニストップ,open,24時間営業,047-381-0201,35.659344,139.902145,千葉県浦安市猫実2丁目11-20,リバーサイド,浦安駅,https://www.ministop.co.jp/,2026/6/29,,1,1,1,check,,,1
poi-067,conbini,デイリーヤマザキ 浦安舞浜店,Daily Yamazaki Urayasu Maihama,デイリーヤマザキ,open,24時間営業,047-350-5900,35.647606,139.888824,千葉県浦安市富士見3-11-1,リバーサイド,元町,https://www.daily-yamazaki.jp/,2026/6/29,,1,1,1,,,,1
poi-068,conbini,NewDays 新浦安,NewDays Shin-Urayasu,NewDays,open,6:30～23:30,047-304-5377,35.64994,139.91272,千葉県浦安市入船1-1 新浦安駅2F 改札外,ベイサイド,新浦安,https://www.j-retail.jp/,2026/6/29,,1,1,,,,,
poi-069,conbini,NewDaysミニ 新浦安4号,NewDays Mini Shin-Urayasu No.4,NewDays,open,平日 6:30～21:00／土曜 6:30～20:00／日祝 7:00～14:00,047-380-0481,35.64994,139.91272,千葉県浦安市入船1-1 新浦安駅2F 改札内コンコース,ベイサイド,新浦安,https://www.j-retail.jp/,2026/6/29,,1,,,,,,
poi-071,conbini,NewDaysミニ 舞浜3号,NewDays Mini Maihama No.3,NewDays,open,平日・土曜 7:00～23:00／日祝 7:00～22:30,047-700-9638,35.636112,139.884384,千葉県浦安市舞浜26-5 舞浜駅2F 改札内,リゾート,舞浜,https://www.j-retail.jp/,2026/6/29,,1,1,,,,,
poi-072,conbini,ファーストセレクト,First Select (Tokyo Bay Maihama Hotel),その他,open,8:00～23:00,047-355-1406,35.630993,139.872862,千葉県浦安市舞浜1-34 東京ベイ舞浜ホテル内,リゾート,舞浜,,2026/6/29,東京ベイ舞浜ホテル ファーストリゾート 館内売店,,1,,,,,
poi-073,supermarket,イオンスタイル新浦安,AEON Style Shin-Urayasu,イオン,open,8:00～23:00,047-350-1147,35.649055,139.914963,千葉県浦安市入船1-4-1,ベイサイド,新浦安,https://www.aeon.jp/,2026/6/29,,,1,,1,1,,
poi-074,supermarket,イオンスタイル新浦安MONA,AEON Style Shin-Urayasu MONA,イオン,open,9:00～22:00,047-390-7811,35.648975,139.913177,千葉県浦安市入船1-5-1,ベイサイド,新浦安,https://www.aeon.jp/,2026/6/29,,,1,,check,1,,
poi-075,supermarket,ダイエー浦安駅前店,Daiei Urayasu Ekimae,ダイエー,open,8:00～24:00,047-355-4147,35.663998,139.896484,千葉県浦安市北栄3-27-13,リバーサイド,浦安駅,https://www.daiei.co.jp/,2026/6/29,,,1,,check,1,,
poi-076,supermarket,サミットストア 浦安駅北口店,Summit Store Urayasu Station North Exit,サミット,open,9:00～24:00,047-306-3310,35.667419,139.893417,千葉県浦安市北栄1-10-20,リバーサイド,浦安駅,https://www.summitstore.co.jp/,2026/6/29,,,1,,,1,,
poi-077,supermarket,サミットストア ライフガーデン浦安富岡店,Summit Store Life Garden Urayasu Tomioka,サミット,open,9:00～23:00,047-306-3330,35.643097,139.900177,千葉県浦安市富岡3-2-2,ベイサイド,新浦安,https://www.summitstore.co.jp/,2026/6/29,,,1,,,1,,
poi-078,supermarket,ヤオコー 浦安東野店,Yaoko Urayasu Higashino,ヤオコー,open,9:00～21:45,047-306-4811,35.647724,139.893478,千葉県浦安市東野2-29-33,ベイサイド,新浦安,https://www.yaoko-net.com/,2026/6/29,,,,,,1,,
poi-079,supermarket,ヤオコー 新浦安店,Yaoko Shin-Urayasu,ヤオコー,open,9:00～21:30,047-381-8011,35.643726,139.922821,千葉県浦安市明海4-1-1 NEW COAST SHIN-URAYASU内,ベイサイド,新町,https://www.yaoko-net.com/,2026/6/29,,,,,,1,,
poi-080,supermarket,オーケー 浦安店,OK Store Urayasu,オーケー,open,8:30～21:30,047-355-0141,35.652882,139.899323,千葉県浦安市東野1-2-33,ベイサイド,新浦安,https://ok-corporation.jp/shop/,2026/6/29,,,,,,1,,
poi-081,supermarket,オーケー 新浦安店,OK Store Shin-Urayasu,オーケー,open,8:45～21:30,047-316-5391,35.636314,139.917923,千葉県浦安市高洲5-3-1,ベイサイド,新町,https://ok-corporation.jp/shop/,2026/6/29,,,,,,1,,
poi-082,supermarket,マルエツ 浦安店,Maruetsu Urayasu,マルエツ,open,24時間営業 ※2Fは10:00～22:00,047-355-2421,35.652317,139.891922,千葉県浦安市富士見1-3-20,リバーサイド,元町,https://www.maruetsu.co.jp/,2026/6/29,,1,1,1,,1,,
poi-083,supermarket,ベルク フォルテ新浦安店,Belc Forte Shin-Urayasu,ベルク,open,9:00～24:00,047-381-8900,35.642681,139.925476,千葉県浦安市日の出5-1-28,ベイサイド,新町,https://www.belc.jp/,2026/6/29,,,1,,,1,,
poi-084,supermarket,アール元気 アクロスプラザ浦安東野店,R Genki Across Plaza Urayasu Higashino,アール元気,open,10:00～20:00,0120-972-129,35.647778,139.892868,千葉県浦安市東野3-4-1 アクロスプラザ浦安東野1F,ベイサイド,新浦安,https://www.welcia.co.jp/,2026/6/29,,,,,,1,,
poi-085,supermarket,業務スーパー 新浦安店,Gyomu Super Shin-Urayasu,業務スーパー,open,9:00～21:00,047-305-4433,35.658936,139.90387,千葉県浦安市猫実1-21-38,リバーサイド,浦安駅,https://www.gyomusuper.jp/,2026/6/29,,,,,,1,,
poi-086,supermarket,ワイズマート 浦安本店,Y's Mart Urayasu Main Store,ワイズマート,open,24時間営業,047-352-0115,35.666306,139.892731,千葉県浦安市当代島1-2-25,リバーサイド,浦安駅,https://www.ysmart.co.jp/,2026/6/29,,1,1,1,,1,,
poi-087,supermarket,ワイズマートディスカ 高洲店,Y's Mart Disca Takasu,ワイズマート,open,月～土 10:00～20:00／日 9:00～20:00,047-382-2851,35.637661,139.911209,千葉県浦安市高洲2-3-12,ベイサイド,新町,https://www.ysmart.co.jp/,2026/6/29,,,,,,1,,
poi-088,supermarket,まいばすけっと 浦安駅前店,My Basket Urayasu Ekimae,まいばすけっと,open,7:00～24:00,047-325-9162,35.665184,139.894485,千葉県浦安市北栄1-16-30,リバーサイド,浦安駅,https://www.mybasket.co.jp/shop/,2026/6/29,,1,1,,,1,,
poi-089,supermarket,まいばすけっと 浦安美浜店,My Basket Urayasu Mihama,まいばすけっと,open,7:00～23:00,047-352-6411,35.652393,139.911469,千葉県浦安市美浜1-7-7 エル・シティ新浦安七番館,ベイサイド,新浦安,https://www.mybasket.co.jp/shop/,2026/6/29,,1,1,,,1,,
poi-090,supermarket,まいばすけっと 猫実3丁目店,My Basket Nekomi 3-chome,まいばすけっと,open,8:00～23:00,047-312-6980,35.662159,139.895538,千葉県浦安市猫実3-24-12 ユナイテッド浦安,リバーサイド,浦安駅,https://www.mybasket.co.jp/shop/,2026/6/29,,,1,,,1,,
poi-091,supermarket,まいばすけっと 浦安当代島2丁目店,My Basket Urayasu Tokaijima 2-chome,まいばすけっと,open,7:00～23:00,047-711-4701,35.668461,139.891586,千葉県浦安市当代島2-10-34,リバーサイド,浦安駅,https://www.mybasket.co.jp/shop/,2026/6/29,,1,1,,,1,,
poi-092,supermarket,成城石井 アトレ新浦安店,Seijo Ishii atre Shin-Urayasu,成城石井,open,10:00～22:00,047-304-2800,35.64994,139.91272,千葉県浦安市入船1-1-1 アトレ新浦安1F,ベイサイド,新浦安,https://shop.seijoishii.com/seijoishii/,2026/6/29,,,1,,,1,,
poi-093,supermarket,成城石井 舞浜イクスピアリ店,Seijo Ishii Maihama Ikspiari,成城石井,open,10:00～22:30,047-305-1580,35.634299,139.886566,千葉県浦安市舞浜1-4-109 舞浜イクスピアリ1F,リゾート,舞浜,https://shop.seijoishii.com/seijoishii/,2026/6/29,,,1,,,1,,
poi-094,supermarket,デポー浦安,Depot Urayasu,生活クラブ,open,月～土 10:00～19:00,047-353-0135,35.648354,139.918839,千葉県浦安市入船4-9-7,ベイサイド,新浦安,,2026/6/29,,,,,,1,,
poi-095,supermarket,アタック 浦安堀江店,Attack Urayasu Horie,アタック,open,9:00～23:00,0120-958-380,35.656555,139.891785,千葉県浦安市堀江5-22-24,リバーサイド,元町,,2026/6/29,,,1,,,1,,
poi-096,supermarket,スーパー木田屋 北栄店,Super Kidaya Kitasakae,木田屋,open,9:30～20:00,047-352-4911,35.664772,139.898911,千葉県浦安市北栄3-31-3,リバーサイド,浦安駅,,2026/6/29,,,,,,1,,
poi-097,supermarket,マインド 堀江店,Mind Horie,マインド,open,8:30～19:30,047-352-2795,35.653358,139.897858,千葉県浦安市堀江6-1-41,リバーサイド,元町,,2026/6/29,,,,,,1,,
poi-098,drugstore,ウエルシア薬局浦安駅前店,Welcia Pharmacy Urayasu Ekimae,ウエルシア,open,9:00～23:00,047-316-8608,35.665897,139.892578,千葉県浦安市当代島1-1-23,リバーサイド,浦安駅,https://www.welcia.co.jp/,2026/6/29,,,1,,,1,,
poi-099,drugstore,ウエルシアライフガーデン新浦安店,Welcia Life Garden Shin-Urayasu,ウエルシア,open,9:00～23:00,047-304-3786,35.643097,139.900177,千葉県浦安市富岡3-2-2,ベイサイド,新浦安,https://www.welcia.co.jp/,2026/6/29,,,1,,,1,,
poi-100,drugstore,ウエルシア 順天堂大学浦安・日の出キャンパス店,Welcia Juntendo Urayasu-Hinode Campus,ウエルシア,open,平日 8:00～20:00／土日祝休業,047-712-5230,35.643864,139.93103,千葉県浦安市日の出6-8-1,ベイサイド,新町,https://www.welcia.co.jp/,2026/6/29,,,,,,1,,
poi-101,drugstore,KoKuMiN アトレ新浦安店,KoKuMiN atre Shin-Urayasu,コクミン,open,平日 9:00～22:00／土 9:00～21:00／日祝 10:00～21:00,047-390-6814,35.64994,139.91272,千葉県浦安市入船1-1-1 アトレ新浦安店1階,ベイサイド,新浦安,https://www.kokumin.co.jp/,2026/6/29,,,1,,,1,,
poi-102,drugstore,ドラッグストア マツモトキヨシ 浦安東野店,Matsumoto Kiyoshi Urayasu Higashino,マツモトキヨシ,open,9:00～24:00,047-350-0778,35.652039,139.90094,千葉県浦安市東野1-1-43,ベイサイド,新浦安,https://www.matsukiyococokara-online.com/store/,2026/6/29,,,1,,,1,,
poi-103,drugstore,ドラッグストア マツモトキヨシ 新浦安美浜店,Matsumoto Kiyoshi Shin-Urayasu Mihama,マツモトキヨシ,open,9:00～23:00,047-711-0157,35.652393,139.911469,千葉県浦安市美浜1-7-1,ベイサイド,新浦安,https://www.matsukiyococokara-online.com/store/,2026/6/29,,,1,,,1,,
poi-104,drugstore,薬 マツモトキヨシ 浦安南口駅前店,Matsumoto Kiyoshi Urayasu Station South Exit,マツモトキヨシ,open,9:00～22:00,047-306-2260,35.665482,139.893265,千葉県浦安市北栄1-16-18,リバーサイド,浦安駅,https://www.matsukiyococokara-online.com/store/,2026/6/29,,,1,,,1,,
poi-105,drugstore,ドラッグストア マツモトキヨシ フォルテ新浦安店,Matsumoto Kiyoshi Forte Shin-Urayasu,マツモトキヨシ,open,9:00～22:00,047-381-5025,35.642681,139.925476,千葉県浦安市日の出5-1-28,ベイサイド,新町,https://www.matsukiyococokara-online.com/store/,2026/6/29,,,1,,,1,,
poi-106,drugstore,ココカラファイン薬局 新浦安店,Cocokara Fine Shin-Urayasu,ココカラファイン,open,月～金 9:00～20:00／土 9:00～19:00／日祝 10:00～18:30,047-381-2615,35.648975,139.913177,千葉県浦安市入船1-5-1 MONA新浦安 B館2F,ベイサイド,新浦安,https://www.cocokarafine.co.jp/,2026/6/29,,,,,,1,,
poi-107,drugstore,トモズ ニューコースト新浦安店,Tomod's New Coast Shin-Urayasu,トモズ,open,9:00～21:00,047-381-0967,35.643726,139.922821,千葉県浦安市明海4-1-1 ニューコースト新浦安1F,ベイサイド,新町,https://shop.tomods.jp/,2026/6/29,,,,,,1,,
poi-108,drugstore,トモズ イクスピアリ店,Tomod's Ikspiari,トモズ,open,10:00～21:00,047-305-5895,35.634299,139.886566,千葉県浦安市舞浜1-4 イクスピアリ2F シアター・フロント,リゾート,舞浜,https://shop.tomods.jp/,2026/6/29,,,,,,1,,
poi-109,drugstore,くすりの福太郎 浦安堀江店,Kusuri no Fukutaro Urayasu Horie,くすりの福太郎,open,10:00～21:00,047-304-7447,35.65778,139.896378,千葉県浦安市堀江1-33-1,リバーサイド,元町,https://www.kusuri-no-fukutaro.co.jp/,2026/6/29,,,,,,1,,
poi-110,drugstore,くすりの福太郎 浦安北栄店,Kusuri no Fukutaro Urayasu Kitasakae,くすりの福太郎,open,平日 10:00～21:30／土日 10:00～21:00,047-316-5529,35.66695,139.893219,千葉県浦安市北栄1-11-20 吉田第一ビル1階,リバーサイド,浦安駅,https://www.kusuri-no-fukutaro.co.jp/,2026/6/29,,,,,,1,,
poi-111,drugstore,調剤薬局くすりの福太郎 浦安駅前店,Kusuri no Fukutaro Urayasu Ekimae,くすりの福太郎,open,月～金 9:00～20:00／土 9:00～18:00／日祝休業,047-316-7403,35.665607,139.89505,千葉県浦安市北栄1-3-34 グランデュール峯崎1-1階,リバーサイド,浦安駅,https://www.kusuri-no-fukutaro.co.jp/,2026/6/29,,,,,,1,,
poi-112,drugstore,薬局くすりの福太郎 浦安店,Kusuri no Fukutaro Urayasu,くすりの福太郎,open,月～金 9:00～18:00／土 9:00～13:00／日祝休業,047-305-8080,35.670929,139.893967,千葉県浦安市当代島3-4-17,リバーサイド,浦安駅,https://www.kusuri-no-fukutaro.co.jp/,2026/6/29,,,,,,1,,
poi-113,drugstore,くすりの福太郎 浦安駅南口店,Kusuri no Fukutaro Urayasu Station South Exit,くすりの福太郎,open,月火木金 10:00～13:00・14:00～19:00／土 9:00～14:00／水日祝休業,047-321-6726,35.665211,139.895309,千葉県浦安市北栄1丁目2番23号 かみ吉ビル1階,リバーサイド,浦安駅,https://www.kusuri-no-fukutaro.co.jp/,2026/6/29,,,,,,1,,
poi-114,drugstore,ファミリーマート＋ヤックスドラッグ 浦安東野薬局,FamilyMart + Yac's Drug Urayasu Higashino Pharmacy,ヤックスドラッグ,open,9:00～18:30／日祝休業,047-712-8017,35.647144,139.893661,千葉県浦安市東野3-4-11,ベイサイド,新浦安,https://www.yac-web.co.jp/,2026/6/29,,,,,,1,,
poi-115,drugstore,薬局ドラッグ・ジロー,Drug Jiro Pharmacy,個人・その他,open,月～金 8:30～19:00／土 8:30～18:00／日祝休業,047-350-6700,35.652313,139.891541,千葉県浦安市富士見2-9-1,リバーサイド,元町,,2026/6/29,,,,,,1,,
poi-116,fastfood,マクドナルド 浦安店,McDonald's Urayasu,マクドナルド,open,平日・土曜 6:00～24:00／休日 6:00～23:00,047-354-1615,35.665524,139.893463,千葉県浦安市北栄1-15-13,リバーサイド,浦安駅,https://map.mcdonalds.co.jp/,2026/6/29,,1,1,,,,,
poi-117,fastfood,マクドナルド 新浦安駅前店,McDonald's Shin-Urayasu Ekimae,マクドナルド,open,7:00～24:00,047-381-2600,35.648975,139.913177,千葉県浦安市入船1-5-1,ベイサイド,新浦安,https://map.mcdonalds.co.jp/,2026/6/29,,1,1,,,,,
poi-118,fastfood,マクドナルド 浦安富士見店,McDonald's Urayasu Fujimi,マクドナルド,open,店内 6:00～23:00／ドライブスルー 6:00～24:00,047-305-4072,35.651966,139.891663,千葉県浦安市富士見1-6-22,リバーサイド,元町,https://map.mcdonalds.co.jp/,2026/6/29,,1,1,,,,,
poi-119,fastfood,マクドナルド 浦安東野ヤオコー店,McDonald's Urayasu Higashino Yaoko,マクドナルド,open,9:30～21:00,047-316-7911,35.649158,139.895233,千葉県浦安市東野2-294-2,ベイサイド,新浦安,https://map.mcdonalds.co.jp/,2026/6/29,,,,,,,,
poi-120,fastfood,マクドナルド 新浦安明海店,McDonald's Shin-Urayasu Akemi,マクドナルド,planned,7:00～23:00 ※開業予定店舗、電話未確認,ー,35.64212,139.923386,千葉県浦安市明海5-1-35,ベイサイド,新町,https://map.mcdonalds.co.jp/,2026/6/29,,,,,,,,
poi-121,fastfood,ケンタッキーフライドチキン 浦安店,KFC Urayasu,ケンタッキーフライドチキン,open,10:00～22:00,070-3317-2083,35.665291,139.893204,千葉県浦安市北栄1-16-16 折本ビル,リバーサイド,浦安駅,https://www.kfc.co.jp/,2026/6/29,,,1,,,,,
poi-122,fastfood,ケンタッキーフライドチキン イオン新浦安店,KFC AEON Shin-Urayasu,ケンタッキーフライドチキン,open,9:00～21:00,070-3313-7220,35.649055,139.914963,千葉県浦安市入船1-4-1,ベイサイド,新浦安,https://www.kfc.co.jp/,2026/6/29,,,,,,,,
poi-123,fastfood,モスバーガー マーヴ浦安店,MOS Burger Marv Urayasu,モスバーガー,open,8:00～22:00,047-354-3330,35.666241,139.893768,千葉県浦安市北栄1-12-13,リバーサイド,浦安駅,https://www.mos.jp/,2026/6/29,,,1,,,,,
poi-124,fastfood,モスバーガー イオン新浦安店,MOS Burger AEON Shin-Urayasu,モスバーガー,open,9:00～21:00 ※L.O.20:30,047-374-3382,35.649055,139.914963,千葉県浦安市入船1-4-1 イオン新浦安1F,ベイサイド,新浦安,https://www.mos.jp/,2026/6/29,,,,,,,,
poi-125,fastfood,バーガーキング 浦安駅前店,Burger King Urayasu Ekimae,バーガーキング,open,9:00～22:00 ※要確認,047-325-9699,35.665016,139.893082,千葉県浦安市北栄1-17-17,リバーサイド,浦安駅,https://www.burgerking.co.jp/,2026/6/29,,,1,,,,,
poi-126,fastfood,バーガーキング ニューコースト新浦安店,Burger King New Coast Shin-Urayasu,バーガーキング,open,10:00～21:00 ※L.O.20:30,047-311-4343,35.643726,139.922821,千葉県浦安市明海4-1-1 ニューコースト新浦安1F,ベイサイド,新町,https://www.burgerking.co.jp/,2026/6/29,,,,,,,,
poi-127,fastfood,ウェンディーズ・ファーストキッチン 浦安西友店,Wendy's First Kitchen Urayasu Seiyu,ウェンディーズ・ファーストキッチン,open,7:00～21:30 ※西友改装状況により要確認,047-350-3822,35.66581,139.893646,千葉県浦安市北栄1-13-25 西友パート2 1F,リバーサイド,浦安駅,https://www.wendys-firstkitchen.co.jp/,2026/6/29,,1,,,,,,
poi-128,fastfood,サブウェイ イオン新浦安店,Subway AEON Shin-Urayasu,サブウェイ,open,8:00～21:00 ※L.O.30分前,047-314-5816,35.649055,139.914963,千葉県浦安市入船1-4-1 イオン新浦安1F,ベイサイド,新浦安,https://www.subway.co.jp/,2026/6/29,,,,,,,,
poi-129,fastfood,ミスタードーナツ 新浦安ショップ,Mister Donut Shin-Urayasu,ミスタードーナツ,open,9:00～21:00,047-390-8761,35.649055,139.914963,千葉県浦安市入船1-4-1 ショッパーズプラザ新浦安,ベイサイド,新浦安,https://md.mapion.co.jp/b/misterdonut/,2026/6/29,,,,,,,,
poi-130,fastfood,はなまるうどん 浦安メトロピア店,Hanamaru Udon Urayasu Metropia,はなまるうどん,open,平日 7:00～22:45／土日祝 8:00～22:00,047-390-8870,35.665558,139.892654,千葉県浦安市北栄1-13-1 東京メトロ浦安駅構内,リバーサイド,浦安駅,https://www.hanamaruudon.com/,2026/6/29,,1,1,,,,,
poi-131,fastfood,はなまるうどん イオン新浦安店,Hanamaru Udon AEON Shin-Urayasu,はなまるうどん,open,10:00～22:00,047-711-0870,35.649055,139.914963,千葉県浦安市入船1-4-1 イオン新浦安1F,ベイサイド,新浦安,https://www.hanamaruudon.com/,2026/6/29,,,1,,,,,
poi-132,fastfood,はなまるうどん ニューコースト新浦安店,Hanamaru Udon New Coast Shin-Urayasu,はなまるうどん,open,10:00～21:00 ※L.O.20:30,047-702-5877,35.643726,139.922821,千葉県浦安市明海4-1-1 ニューコースト新浦安1Fフードコート,ベイサイド,新町,https://www.hanamaruudon.com/,2026/6/29,,,,,,,,
poi-133,fastfood,丸亀製麺 アトレ新浦安店,Marugame Seimen atre Shin-Urayasu,丸亀製麺,open,11:00～22:00 ※L.O.閉店30分前,047-353-3880,35.64994,139.91272,千葉県浦安市入船1-1-1 アトレ新浦安2F,ベイサイド,新浦安,https://stores.marugame.com/,2026/6/29,,,1,,,,,
poi-134,fastfood,吉野家 浦安駅前店,Yoshinoya Urayasu Ekimae,吉野家,open,4:00～翌2:00,047-304-2550,35.665112,139.893066,千葉県浦安市北栄1-17-16,リバーサイド,浦安駅,https://stores.yoshinoya.com/yoshinoya/,2026/6/29,,1,1,,,,,
poi-135,fastfood,吉野家 イオン新浦安店,Yoshinoya AEON Shin-Urayasu,吉野家,open,10:00～22:00 ※L.O.21:30,047-712-8910,35.649055,139.914963,千葉県浦安市入船1-4-1 イオン浦安1Fフードコート,ベイサイド,新浦安,https://stores.yoshinoya.com/yoshinoya/,2026/6/29,,,1,,,,,
poi-136,fastfood,すき家 浦安駅前店,Sukiya Urayasu Ekimae,すき家,open,4:00～翌3:00 ※3:00～4:00休業,0120-498-007,35.664814,139.892456,千葉県浦安市猫実4-18-26 浦安サンライズビル1F,リバーサイド,浦安駅,https://maps.sukiya.jp/jp/here.html,2026/6/29,,1,1,,,,,
poi-137,fastfood,すき家 浦安堀江店,Sukiya Urayasu Horie,すき家,open,4:00～翌3:00 ※3:00～4:00休業,0120-498-007,35.655205,139.893875,千葉県浦安市堀江6-4-29 メゾン浦安1F,リバーサイド,元町,https://maps.sukiya.jp/jp/here.html,2026/6/29,,1,1,,,,,
poi-138,fastfood,松屋 浦安店,Matsuya Urayasu,松屋,open,24時間営業,080-5928-0790,35.665279,139.894302,千葉県浦安市北栄1-15-5 RECS浦安駅前,リバーサイド,浦安駅,https://pkg.navitime.co.jp/matsuyafoods/,2026/6/29,,1,1,1,,,,
poi-139,fastfood,松屋 浦安富士見店,Matsuya Urayasu Fujimi,松屋,open,24時間営業,080-5928-0816,35.646214,139.887848,千葉県浦安市富士見3-16-9,リバーサイド,元町,https://pkg.navitime.co.jp/matsuyafoods/,2026/6/29,,1,1,1,,,,
poi-140,fastfood,かつや 千葉浦安店,Katsuya Chiba-Urayasu,かつや,open,10:00～23:00,047-329-2150,35.659607,139.90329,千葉県浦安市北栄4-2-12,リバーサイド,浦安駅,https://www.katsuya.jp/,2026/6/29,,,1,,,,,
poi-141,fastfood,からあげの鉄人＆カミナリステーキ ニューコースト新浦安店,Karaage no Tetsujin & Kaminari Steak New Coast Shin-Urayasu,からあげの鉄人＆カミナリステーキ,open,10:00～21:00 ※L.O.20:30,047-305-6288,35.643726,139.922821,千葉県浦安市明海4-1-1 ニューコースト新浦安1F,ベイサイド,新町,,2026/6/29,,,,,,,,
poi-142,fastfood,サーティワンアイスクリーム マーヴ浦安店,Baskin-Robbins Marv Urayasu,サーティワンアイスクリーム,open,11:00～21:00,050-1726-4843,35.666241,139.893768,千葉県浦安市北栄1-12-13,リバーサイド,浦安駅,https://www.31ice.co.jp/,2026/7/21,電話番号総点検で047-702-9631から訂正,,,,,,,
poi-143,fastfood,サーティワンアイスクリーム 新浦安アトレ店,Baskin-Robbins atre Shin-Urayasu,サーティワンアイスクリーム,open,10:00～21:00,047-390-6869,35.64994,139.91272,千葉県浦安市入船1-1-1 アトレ新浦安1F,ベイサイド,新浦安,https://www.31ice.co.jp/,2026/6/29,,,,,,,,
poi-144,fastfood,マクドナルド 舞浜イクスピアリ店,McDonald's Maihama Ikspiari,マクドナルド,open,8:00～22:00,047-303-3904,35.634299,139.886566,千葉県浦安市舞浜1-4 イクスピアリ1F ザ・コートヤード,リゾート,舞浜,https://map.mcdonalds.co.jp/,2026/6/29,,,1,,,,,
poi-145,family_restaurant,ガスト 浦安店,Gusto Urayasu,ガスト,open,7:00～翌2:00,0570-011-354,35.664562,139.895493,千葉県浦安市北栄1丁目1-9,リバーサイド,浦安駅,https://store-info.skylark.co.jp/gusto/,2026/6/29,,1,1,,,,,
poi-146,family_restaurant,ジョナサン 浦安店,Jonathan's Urayasu,ジョナサン,open,6:00～24:00,047-390-7092,35.652382,139.899826,千葉県浦安市東野1丁目3-12 ナツミ・ガーデン1階,ベイサイド,新浦安,https://store-info.skylark.co.jp/jonathan/,2026/6/29,,1,1,,,,,
poi-147,family_restaurant,バーミヤン 浦安今川店,Bamiyan Urayasu Imagawa,バーミヤン,open,10:00～23:30,0570-059-203,35.643555,139.905167,千葉県浦安市今川4丁目13-2,ベイサイド,新浦安,https://store-info.skylark.co.jp/bamiyan/,2026/6/29,,,1,,,,,
poi-148,family_restaurant,しゃぶ葉 浦安東野店,Shabu-yo Urayasu Higashino,しゃぶ葉,open,平日 11:00～23:00／土日祝 10:30～23:00,047-700-8501,35.647778,139.892868,千葉県浦安市東野3丁目4-1 アクロスプラザ浦安東野1階,ベイサイド,新浦安,https://store-info.skylark.co.jp/shabuyo/,2026/6/29,,,1,,,,,
poi-149,family_restaurant,ロイヤルホスト 浦安店,Royal Host Urayasu,ロイヤルホスト,open,月～金 9:00～23:00／土日祝 8:00～23:00,047-353-7362,35.669964,139.894394,千葉県浦安市北栄2-18-32,リバーサイド,浦安駅,https://www.royalhost.jp/,2026/6/29,,,1,,,,,
poi-150,family_restaurant,ココス 浦安店,COCO'S Urayasu,ココス,open,6:00～翌4:00,047-390-6327,35.659607,139.902832,千葉県浦安市猫実1-21-26,リバーサイド,浦安駅,https://maps.cocos-jpn.co.jp/jp/index.html,2026/6/29,,1,1,,,,,
poi-151,family_restaurant,ビッグボーイ ライフガーデン新浦安店,Big Boy Life Garden Shin-Urayasu,ビッグボーイ,open,10:00～翌2:00,047-316-5002,35.643097,139.900177,千葉県浦安市富岡3-2-1 2F,ベイサイド,新浦安,https://www.bigboyjapan.co.jp/,2026/6/29,,,1,,,,,
poi-152,family_restaurant,ジョリーパスタ ライフガーデン新浦安店,Jolly Pasta Life Garden Shin-Urayasu,ジョリーパスタ,open,月～金 11:00～24:00／土日祝 10:00～24:00,047-304-2626,35.643097,139.900177,千葉県浦安市富岡3-2-1,ベイサイド,新浦安,https://www.jolly-pasta.co.jp/,2026/6/29,,,1,,,,,
poi-153,family_restaurant,和食さと 浦安店,Washoku Sato Urayasu,和食さと,open,11:00～24:00,047-350-9359,35.660442,139.901535,千葉県浦安市猫実2丁目13-23,リバーサイド,浦安駅,https://sato-res.com/,2026/6/29,,,1,,,,,
poi-154,family_restaurant,北海道生まれ 和食処とんでん 浦安店,Tonden Urayasu,とんでん,open,11:00～23:30,047-350-3131,35.651943,139.901123,千葉県浦安市東野1-1-41,ベイサイド,新浦安,https://www.tonden.co.jp/,2026/6/29,,,1,,,,,
poi-155,family_restaurant,サイゼリヤ アトレ新浦安店,Saizeriya atre Shin-Urayasu,サイゼリヤ,open,10:30～翌3:00,047-380-8318,35.64994,139.91272,千葉県浦安市入船1-1-1 アトレ新浦安内,ベイサイド,新浦安,https://www.saizeriya.co.jp/,2026/6/29,,,1,,,,,
poi-156,family_restaurant,サイゼリヤ 浦安駅前店,Saizeriya Urayasu Ekimae,サイゼリヤ,open,10:00～翌2:00,047-304-3781,35.665981,139.892609,千葉県浦安市当代島1-1-22 佃甚ビル2F,リバーサイド,浦安駅,https://www.saizeriya.co.jp/,2026/6/29,,,1,,,,,
poi-157,family_restaurant,サイゼリヤ 舞浜駅前店,Saizeriya Maihama Ekimae,サイゼリヤ,open,7:00～23:00,047-700-8731,35.636112,139.884384,千葉県浦安市舞浜26-5 ホテルドリームゲート舞浜1F,リゾート,舞浜,https://www.saizeriya.co.jp/,2026/6/29,,1,1,,,,,
poi-158,family_restaurant,サイゼリヤ アクロスプラザ浦安東野店,Saizeriya Across Plaza Urayasu Higashino,サイゼリヤ,open,10:00～23:00,047-390-5565,35.647778,139.892868,千葉県浦安市東野3-4-1 アクロスプラザ浦安東野1F,ベイサイド,新浦安,https://www.saizeriya.co.jp/,2026/6/29,,,1,,,,,
poi-159,family_restaurant,サイゼリヤ ニューコースト新浦安店,Saizeriya New Coast Shin-Urayasu,サイゼリヤ,open,10:00～22:00,047-306-6430,35.643726,139.922821,千葉県浦安市明海4-1-1 NEW COAST SHIN-URAYASU 3F,ベイサイド,新町,https://www.saizeriya.co.jp/,2026/6/29,,,1,,,,,
poi-160,family_restaurant,サイゼリヤ 舞浜イクスピアリ店,Saizeriya Maihama Ikspiari,サイゼリヤ,open,9:00～22:30,047-304-0082,35.634299,139.886566,千葉県浦安市舞浜1-4 イクスピアリ2F B’ウェイ,リゾート,舞浜,https://www.saizeriya.co.jp/,2026/6/29,,,1,,,,,
poi-161,sushi,すし銚子丸 浦安店,Sushi Choshimaru Urayasu,すし銚子丸,open,11:00～21:00目安,047-351-9922,35.661366,139.900101,千葉県浦安市猫実2-33-24,リバーサイド,浦安駅,https://www.choushimaru.co.jp/,2026/6/29,,,,,,,,
poi-162,sushi,はま寿司 ライフガーデン新浦安店,Hama Sushi Life Garden Shin-Urayasu,はま寿司,open,月～金 11:00～24:00／土日祝 10:00～24:00,0570-071-427,35.643097,139.900177,千葉県浦安市富岡3-2-1,ベイサイド,新浦安,https://maps.hama-sushi.co.jp/,2026/6/29,,,1,,,,,
poi-163,sushi,スシロー フォルテ新浦安店,Sushiro Forte Shin-Urayasu,スシロー,open,月～金 11:00～23:00／土日祝 10:30～23:00,047-381-8021,35.642681,139.925476,千葉県浦安市日の出5-1-28 フォルテ新浦安2F,ベイサイド,新町,https://www.akindo-sushiro.co.jp/,2026/6/29,,,1,,,,,
poi-164,ramen,らあめん花月嵐 MONA新浦安店,Kagetsu Arashi Ramen MONA Shin-Urayasu,らあめん花月嵐,open,11:00～23:00（L.O.22:15）,047-381-2720,35.648975,139.913177,千葉県浦安市入船1-5-1 MONA新浦安4F,ベイサイド,新浦安,https://www.kagetsu.co.jp/,2026/6/29,,,1,,,,,
poi-165,ramen,らあめん花月嵐 浦安店,Kagetsu Arashi Ramen Urayasu,らあめん花月嵐,open,11:00～要確認,047-711-4941,35.668987,139.893723,千葉県浦安市当代島2-5-1,リバーサイド,浦安駅,https://www.kagetsu.co.jp/,2026/6/29,,,,,,,,
poi-166,ramen,らぁ麺はやし田 アトレ新浦安店,Ramen Hayashida atre Shin-Urayasu,らぁ麺はやし田,open,11:00～23:00（L.O.22:55）,047-390-6820,35.64994,139.91272,千葉県浦安市入船1-1-1 アトレ新浦安2F,ベイサイド,新浦安,,2026/6/29,,,1,,,,,
poi-167,ramen,日高屋 浦安店,Hidakaya Urayasu,日高屋,open,曜日別変動あり ※概ね10:00～24:00前後,047-306-4571,35.665203,139.893051,千葉県浦安市北栄1-17-15,リバーサイド,浦安駅,https://hidakaya.hiday.co.jp/,2026/6/29,,,1,,,,,
poi-168,ramen,ラーメンたかし屋 浦安店,Ramen Takashiya Urayasu,たかし屋,open,11:00～翌5:00,047-350-2578,35.665565,139.894089,千葉県浦安市北栄1-15-23,リバーサイド,浦安駅,,2026/6/29,,,1,,,,,
poi-169,ramen,とんこつらーめん おんごろや,Ongoroya (Tonkotsu Ramen),おんごろや,open,月火木金土日 17:30～23:45／水曜・第1第3火曜定休,047-353-5060,35.665043,139.889664,千葉県浦安市猫実5-12-12,リバーサイド,浦安駅,,2026/6/29,,,1,,,,,
poi-170,ramen,麺屋 土竜 新浦安,Menya Mogura Shin-Urayasu,麺屋土竜,open,平日 11:30～22:00／土日祝 11:00～22:00,047-704-8001,35.649055,139.914963,千葉県浦安市入船1-4-1 イオン新浦安4F,ベイサイド,新浦安,,2026/6/29,,,1,,,,,
poi-171,ramen,麺屋真星,Menya Masei,麺屋真星,open,昼 11:00～14:10最終入店／夜 月～土 17:00～21:25最終入店、日祝 17:00～19:25最終入店,047-316-7778,35.670631,139.894714,千葉県浦安市北栄2-19-26,リバーサイド,浦安駅,,2026/7/21,電話番号総点検で判明・補完,,,,,,,
poi-172,ramen,中国ラーメン揚州商人 イオン新浦安店,Yoshu Shonin Chinese Ramen AEON Shin-Urayasu,揚州商人,open,11:00～23:30（L.O.23:00）,047-318-2345,35.649055,139.914963,千葉県浦安市入船1-4-1 イオン新浦安4F,ベイサイド,新浦安,https://www.yoshu.co.jp/,2026/6/29,,,1,,,,,
poi-173,yakiniku,焼肉きんぐ マーヴ浦安店,Yakiniku King Marv Urayasu,焼肉きんぐ,open,平日 17:00～23:00／土日祝 11:00～23:00,050-1794-1905,35.665146,139.891632,千葉県浦安市当代島1-17-4,リバーサイド,浦安駅,https://www.yakiniku-king.jp/shop/,2026/6/29,,,1,,,,,
poi-174,yakiniku,国産牛焼肉くいどん 浦安店,Kuidon Yakiniku Urayasu,くいどん,open,平日 11:00～15:00・17:00～22:00／土日祝 11:00～22:00,047-314-1429,35.647778,139.892868,千葉県浦安市東野3-4-1 アクロスプラザ浦安東野2F,ベイサイド,新浦安,,2026/6/29,,,1,,,,,
poi-175,yakiniku,牛角 浦安店,Gyukaku Urayasu,牛角,open,月火水木日 17:00～24:00／金土 17:00～翌2:00,047-382-3729,35.665184,139.894485,千葉県浦安市北栄1-16-30 浦安小徳ビル1F,リバーサイド,浦安駅,https://www.gyukaku.ne.jp/,2026/6/29,,,1,,,,,
poi-176,yakiniku,牛角 イオン新浦安店,Gyukaku AEON Shin-Urayasu,牛角,open,11:30～24:00,047-316-3329,35.649055,139.914963,千葉県浦安市入船1-4-1 イオン新浦安4F,ベイサイド,新浦安,https://www.gyukaku.ne.jp/,2026/6/29,,,1,,,,,
poi-177,yakiniku,焼肉新羅 浦安店,Yakiniku Shinra Urayasu,焼肉新羅,open,11:00～15:00／17:00～24:00 ※日祝は夜23:00までの情報あり,047-321-4129,35.664478,139.895676,千葉県浦安市北栄1-1-7 ブランシェ1F,リバーサイド,浦安駅,,2026/6/29,,,1,,,,,
poi-178,yakiniku,焼肉新羅 新浦安本店,Yakiniku Shinra Shin-Urayasu Main Store,焼肉新羅,open,11:00～15:00／月～土 15:00～24:00、日 15:00～23:00,047-380-2941,35.640732,139.926575,千葉県浦安市明海5-6-8 ラフィネス新浦安ベイモールA,ベイサイド,新町,,2026/6/29,,,1,,,,,
poi-179,yakiniku,焼肉新羅 新浦安駅前 MONA店,Yakiniku Shinra Shin-Urayasu MONA,焼肉新羅,open,11:00～23:00（L.O.22:30）,047-329-2929,35.648975,139.913177,千葉県浦安市入船1-5-1 MONA新浦安4F,ベイサイド,新浦安,,2026/6/29,,,1,,,,,
poi-180,yakiniku,焼肉トラジ イクスピアリ店,Yakiniku Toraji Ikspiari,焼肉トラジ,open,ランチ 11:00～16:00／ディナー 16:00～22:30,047-306-4200,35.634299,139.886566,千葉県浦安市舞浜1-4 イクスピアリ3F,リゾート,舞浜,https://www.toraji.com/,2026/6/29,,,1,,,,,
poi-181,yakiniku,焼肉レストラン南大門 浦安本店,Namdaemun Yakiniku Urayasu Main Store,南大門,open,11:30～15:00／17:00～23:00,047-353-4902,35.665291,139.893021,千葉県浦安市北栄1-17-14 加納ビル2F,リバーサイド,浦安駅,,2026/6/29,,,1,,,,,
poi-182,casual_restaurant,ポポラマーマ 浦安店,Popolamama Urayasu,ポポラマーマ,open,11:00～22:30（L.O.22:00）,047-305-8010,35.666065,139.892853,千葉県浦安市北栄1-13-7 光雄マンション2階,リバーサイド,浦安駅,https://www.popolamama.com/,2026/6/29,,,1,,,,,
poi-183,casual_restaurant,ポポラマーマ イオン新浦安店,Popolamama AEON Shin-Urayasu,ポポラマーマ,open,11:00～22:30（L.O.22:00）,047-380-7668,35.649055,139.914963,千葉県浦安市入船1-4-1 イオン新浦安2階,ベイサイド,新浦安,https://www.popolamama.com/,2026/6/29,,,1,,,,,
poi-184,casual_restaurant,ポポラマーマ ニューコースト新浦安店,Popolamama New Coast Shin-Urayasu,ポポラマーマ,open,11:00～22:00（L.O.21:00）,047-374-3180,35.643726,139.922821,千葉県浦安市明海4-1-1 NEW COAST SHIN-URAYASU 3F,ベイサイド,新町,https://www.popolamama.com/,2026/6/29,,,1,,,,,
poi-185,casual_restaurant,Italian Kitchen VANSAN 浦安店,Italian Kitchen VANSAN Urayasu,VANSAN,open,11:00～23:00,047-383-9155,35.663998,139.896484,千葉県浦安市北栄3-27-13,リバーサイド,浦安駅,,2026/6/29,,,1,,,,,
poi-186,casual_restaurant,Italian Kitchen VANSAN イオン新浦安店,Italian Kitchen VANSAN AEON Shin-Urayasu,VANSAN,open,11:00～23:00,047-711-2910,35.649055,139.914963,千葉県浦安市入船1-4 イオン新浦安4F,ベイサイド,新浦安,,2026/6/29,,,1,,,,,
poi-187,sushi,ABURI百貫 イオン新浦安店,Aburi Hyakkan AEON Shin-Urayasu,ABURI百貫,open,11:00～23:00（L.O.22:00）,047-312-6975,35.649055,139.914963,千葉県浦安市入船1-4-1 イオン新浦安4階,ベイサイド,新浦安,,2026/6/29,,,1,,,,,
poi-188,cafe,スターバックス コーヒー 浦安店,Starbucks Coffee Urayasu,スターバックス,open,月～金 07:00～22:00／土日祝 08:00～22:00,047-306-5231,35.665394,139.893875,千葉県浦安市北栄1-15-9 寿ビル,リバーサイド,浦安駅,https://store.starbucks.co.jp/,2026/6/29,,1,1,,,,,
poi-189,cafe,スターバックス コーヒー マーヴ浦安店,Starbucks Coffee Marv Urayasu,スターバックス,open,07:00～22:00,047-383-9586,35.665276,139.891998,千葉県浦安市当代島1-1-4 マーヴ浦安,リバーサイド,浦安駅,https://store.starbucks.co.jp/,2026/6/29,,1,1,,,,,
poi-190,cafe,スターバックス コーヒー アトレ新浦安店,Starbucks Coffee atre Shin-Urayasu,スターバックス,open,10:00～21:00,047-390-6861,35.64994,139.91272,千葉県浦安市入船1-1-1 アトレ新浦安,ベイサイド,新浦安,https://store.starbucks.co.jp/,2026/6/29,,,,,,,,
poi-191,cafe,スターバックス コーヒー MONA新浦安店,Starbucks Coffee MONA Shin-Urayasu,スターバックス,open,07:00～22:00,047-305-7971,35.648975,139.913177,千葉県浦安市入船1-5-1 MONA新浦安,ベイサイド,新浦安,https://store.starbucks.co.jp/,2026/6/29,,1,1,,,,,
poi-192,cafe,スターバックス コーヒー 舞浜駅店,Starbucks Coffee Maihama Station,スターバックス,open,07:00～22:00,047-711-1631,35.636112,139.884384,千葉県浦安市舞浜26-5 JR舞浜駅南口改札外,リゾート,舞浜,https://store.starbucks.co.jp/,2026/6/29,,1,1,,,,,
poi-193,cafe,スターバックス コーヒー 舞浜 イクスピアリ店,Starbucks Coffee Maihama Ikspiari,スターバックス,open,08:00～22:00,047-305-5728,35.634299,139.886566,千葉県浦安市舞浜1-4 イクスピアリ1F,リゾート,舞浜,https://store.starbucks.co.jp/,2026/6/29,,,1,,,,,
poi-194,cafe,スターバックス コーヒー 舞浜 イクスピアリ2F トレイダーズ・パッセージ店,Starbucks Coffee Maihama Ikspiari Trader's Passage,スターバックス,open,月～金 10:00～22:00／土日祝 08:00～22:00,047-305-5727,35.634299,139.886566,千葉県浦安市舞浜1-4 イクスピアリ2F,リゾート,舞浜,https://store.starbucks.co.jp/,2026/6/29,,,1,,,,,
poi-195,cafe,ドトールコーヒーショップ 浦安南口店,Doutor Coffee Urayasu South Exit,ドトール,open,平日 06:45～21:45／土日祝 07:00～21:30,047-381-4365,35.66581,139.893646,千葉県浦安市北栄1-13-25 西友浦安店パート2館1F,リバーサイド,浦安駅,https://www.doutor.co.jp/,2026/6/29,,1,,,,,,
poi-196,cafe,ドトールコーヒーショップ アトレ新浦安店,Doutor Coffee atre Shin-Urayasu,ドトール,open,07:00～21:00,047-390-6841,35.64994,139.91272,千葉県浦安市入船1-1-1,ベイサイド,新浦安,https://www.doutor.co.jp/,2026/6/29,,1,,,,,,
poi-197,cafe,ドトールコーヒーショップ 新浦安モナ店,Doutor Coffee Shin-Urayasu MONA,ドトール,open,07:30～22:00,047-382-3055,35.648975,139.913177,千葉県浦安市入船1-5-1 MONA新浦安,ベイサイド,新浦安,https://www.doutor.co.jp/,2026/6/29,,,1,,,,,
poi-198,cafe,ドトールコーヒーショップ 順天堂大学医学部附属浦安病院店,Doutor Coffee Juntendo Urayasu Hospital,ドトール,open,平日 07:30～17:00／土曜 07:30～15:00 ※第2土曜休業,047-353-6800,35.645916,139.906921,千葉県浦安市富岡2-1-1,ベイサイド,新浦安,https://www.doutor.co.jp/,2026/6/29,,,,,,,,
poi-199,cafe,コメダ珈琲店 浦安駅前店,Komeda's Coffee Urayasu Ekimae,コメダ珈琲店,open,06:30～22:30,047-711-4774,35.664791,139.89209,千葉県浦安市猫実5-18-16 2F,リバーサイド,浦安駅,https://www.komeda.co.jp/,2026/6/29,,1,1,,,,,
poi-200,cafe,コメダ珈琲店 新浦安店,Komeda's Coffee Shin-Urayasu,コメダ珈琲店,open,06:30～23:00,047-381-2636,35.648975,139.913177,千葉県浦安市入船1-5-1 MONA新浦安B館2F,ベイサイド,新浦安,https://www.komeda.co.jp/,2026/6/29,,1,1,,,,,
poi-201,cafe,タリーズコーヒー ニューコースト新浦安店,Tully's Coffee New Coast Shin-Urayasu,タリーズコーヒー,open,09:00～21:00,047-711-0333,35.643726,139.922821,千葉県浦安市明海4-1-1 NEW COAST SHIN-URAYASU 1F,ベイサイド,新町,https://www.tullys.co.jp/,2026/6/29,,,,,,,,
poi-202,cafe,タリーズコーヒー イクスピアリ店,Tully's Coffee Ikspiari,タリーズコーヒー,open,08:00～22:00,047-316-5266,35.634299,139.886566,千葉県浦安市舞浜1-4 イクスピアリ1F ガーデンサイト,リゾート,舞浜,https://www.tullys.co.jp/,2026/6/29,,,1,,,,,
poi-203,cafe,BECK'S COFFEE SHOP 舞浜店,BECK'S COFFEE SHOP Maihama,BECK'S COFFEE SHOP,open,07:00～22:00,090-6475-7630,35.636112,139.884384,千葉県浦安市舞浜26-5 JR舞浜駅 改札外コンコース,リゾート,舞浜,,2026/6/29,,1,1,,,,,
poi-204,cafe,nana's green tea イクスピアリ店,nana's green tea Ikspiari,nana's green tea,open,10:00～21:00目安,047-305-5875,35.634299,139.886566,千葉県浦安市舞浜1-4 イクスピアリ1F,リゾート,舞浜,,2026/6/29,,,,,,,,
seims-maihama,drugstore,ドラッグセイムス 舞浜店,Drug Seims Maihama,ドラッグセイムス,open,8:00-23:45（調剤は月-土10:00-14:00/15:00-19:00・日祝休）,047-306-5561,35.644321,139.888519,千葉県浦安市富士見5-7-40,リバーサイド,元町,https://store.seims.co.jp/map/9849/,2026/7/21,変なホテル舞浜 東京ベイの近隣ドラッグストア（深夜23:45まで）。富士見にウエルシアは無く旧記述の誤りを是正。電話番号総点検で047-316-0168から訂正,,1,,,1,,
daiso-ekimae,hundred_yen,ダイソー 浦安駅前店,Daiso Urayasu Ekimae,ダイソー,open,10:00～21:00,,35.66486,139.89415,千葉県浦安市北栄1-16-5 サカゼン浦安2F,リバーサイド,浦安駅,https://www.daiso-sangyo.co.jp/shop,2026/7/9,浦安駅東口至近の100円ショップ,,,,,,,
daiso-aeon,hundred_yen,ダイソー イオン新浦安店,Daiso AEON Shin-Urayasu,ダイソー,open,9:00～21:00,,35.649055,139.914963,千葉県浦安市入船1-4-1 イオンスタイル新浦安3F,ベイサイド,新浦安,https://www.daiso-sangyo.co.jp/shop,2026/7/9,,,,,,,,
daiso-newcoast,hundred_yen,ダイソー ニューコースト新浦安店,Daiso New Coast Shin-Urayasu,ダイソー,open,10:00～21:00,,35.643726,139.922821,千葉県浦安市明海4-1-1 ニューコースト新浦安3F,ベイサイド,新町,https://www.daiso-sangyo.co.jp/shop,2026/7/9,,,,,,,,
daiso-ikspiari,hundred_yen,ダイソー イクスピアリ店,Daiso Ikspiari,ダイソー,open,10:00～21:00,,35.634299,139.886566,千葉県浦安市舞浜1-4 イクスピアリ3F,リゾート,舞浜,https://www.daiso-sangyo.co.jp/shop,2026/7/9,TDR徒歩圏の100円ショップ（イクスピアリ内）,,,,,,,
seria-mona,hundred_yen,セリア MONA新浦安店,Seria MONA Shin-Urayasu,セリア,open,10:00～20:30,,35.648975,139.913177,千葉県浦安市入船1-5-1 MONA新浦安B館3F,ベイサイド,新浦安,https://www.seria-group.com/shop/,2026/7/9,,,,,,,,
seria-seiyu,hundred_yen,セリア 西友浦安店,Seria Seiyu Urayasu,セリア,open,10:00～21:00,,35.665432,139.894836,千葉県浦安市北栄1-14-1 西友浦安店4F,リバーサイド,浦安駅,https://www.seria-group.com/shop/,2026/7/9,西友→トライアル西友への改装後の在館・営業時間は要確認,,,,,,,
watts-maruetsu,hundred_yen,ワッツウィズ 浦安マルエツ店,Watts With Urayasu Maruetsu,ワッツ,open,10:00～22:00,,35.652317,139.891922,千葉県浦安市富士見1-3-20 マルエツ浦安店2F,リバーサイド,元町,https://www.watts-jp.com/,2026/7/9,,,1,,,,,
watts-higashino,hundred_yen,ワッツ 浦安東野マツモトキヨシ店,Watts Urayasu Higashino,ワッツ,open,9:00～21:00,,35.652039,139.90094,千葉県浦安市東野1-1-43 マツモトキヨシ浦安東野店内,ベイサイド,新浦安,https://www.watts-jp.com/,2026/7/9,,,,,,,,
post-urayasu,post_office,浦安郵便局,Urayasu Post Office,日本郵便,open,窓口 平日9:00～19:00／土9:00～17:00（ゆうゆう窓口 平日7:00～19:00・土日祝7:00～18:00）,0570-943-548,35.651989,139.900589,千葉県浦安市東野1-6-1,ベイサイド,新浦安,https://map.japanpost.jp/p/search/,2026/7/9,市内本局・ゆうちょ銀行浦安店併設。ゆうちょATMは海外発行カード対応,1,,,1,,,1
post-ekimae,post_office,浦安駅前郵便局,Urayasu Ekimae Post Office,日本郵便,open,平日9:00～17:00,,35.665981,139.892609,千葉県浦安市当代島1-1-22,リバーサイド,浦安駅,https://map.japanpost.jp/p/search/,2026/7/9,浦安駅至近。ゆうちょATMは海外発行カード対応,,,,1,,,1
post-tomioka,post_office,浦安富岡郵便局,Urayasu Tomioka Post Office,日本郵便,open,平日9:00～17:00,047-354-5028,35.643097,139.900177,千葉県浦安市富岡3-2-2,ベイサイド,新浦安,https://map.japanpost.jp/p/search/,2026/7/9,ライフガーデン新浦安内。ゆうちょATMは海外発行カード対応,,,,1,,,1
post-bokai,post_office,浦安望海の街郵便局,Urayasu Bokai-no-machi Post Office,日本郵便,open,平日9:00～17:00,047-382-0111,35.641327,139.920609,千葉県浦安市明海4-2-1,ベイサイド,新町,https://map.japanpost.jp/p/search/,2026/7/9,ゆうちょATMは海外発行カード対応,,,,1,,,1
post-nekomi2,post_office,浦安猫実二郵便局,Urayasu Nekomi-2 Post Office,日本郵便,open,平日9:00～17:00,047-353-1077,35.658863,139.899338,千葉県浦安市猫実2-7-7,リバーサイド,浦安駅,https://map.japanpost.jp/p/search/,2026/7/9,ゆうちょATMは海外発行カード対応,,,,1,,,1
uniqlo-atre,apparel,ユニクロ アトレ新浦安店,UNIQLO atre Shin-Urayasu,ユニクロ,open,10:00～21:00,,35.64994,139.91272,千葉県浦安市入船1-1-1 アトレ新浦安2F,ベイサイド,新浦安,https://map.uniqlo.com/jp/ja/,2026/7/9,市内唯一のユニクロ。着替えの緊急調達に,,,,,,,
gu-mona,apparel,ジーユー MONA新浦安店,GU MONA Shin-Urayasu,ジーユー,open,10:00～20:30,,35.648975,139.913177,千葉県浦安市入船1-5-1 MONA新浦安3F,ベイサイド,新浦安,https://map.gu-global.com/jp/ja/,2026/7/9,,,,,,,,
shimamura-newcoast,apparel,ファッションセンターしまむら ニューコースト新浦安店,Shimamura New Coast Shin-Urayasu,しまむら,open,10:00～20:00,,35.643726,139.922821,千葉県浦安市明海4-1-1 ニューコースト新浦安,ベイサイド,新町,https://www.shimamura.gr.jp/shop/,2026/7/9,,,,,,,,
torikizoku-shinurayasu,izakaya,鳥貴族 新浦安店,Torikizoku Shin-Urayasu,鳥貴族,open,月～金 17:00～24:00／土日 16:00～24:00,050-1808-0599,35.648838,139.911865,千葉県浦安市入船1-6-1 新浦安TKビルディング2F,ベイサイド,新浦安,https://map.torikizoku.co.jp/,2026/7/21,均一価格の焼き鳥チェーン。新浦安駅徒歩3分。電話番号総点検で047-711-2625から訂正,,1,,,,,
uotami-ekimae,izakaya,魚民 浦安駅前店,Uotami Urayasu Ekimae,モンテローザ,open,17:00～翌3:00,047-350-5788,35.665016,139.893082,千葉県浦安市北栄1-17-17 大盛ビル2F,リバーサイド,浦安駅,https://www.monteroza.co.jp/,2026/7/9,総合居酒屋チェーン。深夜まで営業,,1,,,,,
mekiki-mona,izakaya,目利きの銀次 MONA新浦安店,Mekiki no Ginji MONA Shin-Urayasu,モンテローザ,open,11:00～23:00,,35.648975,139.913177,千葉県浦安市入船1-5-1 MONA新浦安,ベイサイド,新浦安,https://www.monteroza.co.jp/,2026/7/9,海鮮居酒屋チェーン。昼営業あり,,1,,,,,
washplus-fujimi3,laundry,wash+ 富士見3丁目店,wash+ Fujimi 3-chome (Coin Laundry),wash+,open,24時間営業,,35.649422,139.887482,千葉県浦安市富士見3-4-8,リバーサイド,元町,https://www.wash-plus.jp/store/,2026/7/9,洗剤不要のコインランドリー・24時間,1,1,1,,,,
washplus-imagawa,laundry,wash+ 今川店,wash+ Imagawa (Coin Laundry),wash+,open,24時間営業,,35.644634,139.906815,千葉県浦安市今川1-1-35 エルドシック浦安103,ベイサイド,新浦安,https://www.wash-plus.jp/store/,2026/7/9,24時間コインランドリー,1,1,1,,,,
washplus-kitasakae2,laundry,wash+ 北栄2丁目店,wash+ Kitasakae 2-chome (Coin Laundry),wash+,open,24時間営業,,35.667435,139.895508,千葉県浦安市北栄2-5-2,リバーサイド,浦安駅,https://www.wash-plus.jp/store/,2026/7/9,24時間コインランドリー,1,1,1,,,,
washplus-akemi,laundry,wash+ 明海店,wash+ Akemi (Coin Laundry),wash+,open,24時間営業,,35.639416,139.928223,千葉県浦安市明海5-7-8,ベイサイド,新町,https://www.wash-plus.jp/store/,2026/7/9,24時間コインランドリー,1,1,1,,,,
hahahand-urayasu,laundry,コインランドリー Ha Ha Hand,Ha Ha Hand Coin Laundry,個人・その他,open,5:00～23:00,,35.666996,139.891525,千葉県浦安市当代島1-11-17,リバーサイド,浦安駅,,2026/7/9,当代島のコインランドリー,1,1,,,,,
nojima-seiyu,electronics,ノジマ 西友浦安店,Nojima Seiyu Urayasu,ノジマ,open,10:00～20:00,,35.665432,139.894836,千葉県浦安市北栄1-14-1 西友浦安店内,リバーサイド,浦安駅,https://www.nojima.co.jp/shop/chiba/seiyuurayasu/,2026/7/9,西友(トライアル改装)内。改装後の営業時間は要確認,,,,,,1,
nojima-newcoast,electronics,ノジマ ニューコースト新浦安店,Nojima New Coast Shin-Urayasu,ノジマ,open,10:00～21:00,,35.643726,139.922821,千葉県浦安市明海4-1-1 ニューコースト新浦安,ベイサイド,新町,https://www.nojima.co.jp/shop/chiba/newcoast_shinurayasu/,2026/7/9,,,,,,,1,
yamada-aeon,electronics,ヤマダ電機 テックランド イオン新浦安店,Yamada Denki Tecc Land AEON Shin-Urayasu,ヤマダ電機,open,9:00～21:00,,35.649055,139.914963,千葉県浦安市入船1-4-1 イオン新浦安3F,ベイサイド,新浦安,https://www.yamada-denki.jp/store/contents/?d=2193,2026/7/9,,,,,,,1,
ksdenki-hinode,electronics,ケーズデンキ 東京ベイサイド新浦安,K's Denki Tokyo Bayside Shin-Urayasu,ケーズデンキ,open,10:00～20:00 ※要確認,047-390-6720,35.644836,139.924042,千葉県浦安市日の出4-1-8,ベイサイド,新町,https://www.ksdenki.co.jp/store/detail/?prefectureCode=12&code=1108,2026/7/9,営業時間は季節/曜日変動あり公式要確認,,,,,,1,
